City_ID,City,Country,Lat,Lng,Max Temp,Humidity,Cloudiness,Wind Speed,Current Description
0,Busselton,AU,-33.65,115.3333,60.15,71,79,23.02,light rain
1,Pacific Grove,US,36.6177,-121.9166,73.24,74,0,10.36,clear sky
2,Nikolskoye,RU,59.7035,30.7861,40.91,60,12,2.66,few clouds
3,Ribeira Grande,PT,38.5167,-28.7,64.8,100,100,3.44,overcast clouds
4,Port Elizabeth,ZA,-33.918,25.5701,53.89,87,0,3.44,clear sky
5,Caravelas,BR,-17.7125,-39.2481,70.41,77,6,5.7,clear sky
6,Santa Fe,AR,-31.6333,-60.7,65.01,73,46,4.0,light rain
7,Atuona,PF,-9.8,-139.0333,77.68,80,27,17.56,light rain
8,Sitka,US,57.0531,-135.33,51.69,71,100,10.36,overcast clouds
9,Cape Town,ZA,-33.9258,18.4232,62.38,86,0,2.3,clear sky
10,Loreto,MX,22.2667,-101.9667,86.41,10,1,3.67,clear sky
11,Giresun,TR,40.5,38.5,37.22,90,71,3.51,broken clouds
12,Jamestown,US,42.097,-79.2353,55.53,90,100,12.66,overcast clouds
13,Butaritari,KI,3.0707,172.7902,81.97,78,65,11.34,broken clouds
14,Bilma,NE,18.6853,12.9164,86.95,11,87,4.5,overcast clouds
15,Camana,PE,-16.6228,-72.7111,65.43,84,79,9.55,broken clouds
16,Marienburg,PL,54.0359,19.0266,45.88,95,15,5.53,few clouds
17,Jurm,AF,36.8648,70.8342,46.02,85,100,0.76,overcast clouds
18,Roma,US,43.2128,-75.4557,66.51,87,75,14.97,broken clouds
19,Porto Seguro,BR,-16.4497,-39.0647,68.52,83,75,5.75,broken clouds
20,Alghero,IT,40.5589,8.3181,60.89,82,0,2.3,clear sky
21,Tiksi,RU,71.6872,128.8694,28.47,91,71,4.52,broken clouds
22,Hilo,US,19.7297,-155.09,87.28,48,0,11.01,clear sky
23,Ushuaia,AR,-54.8,-68.3,33.46,80,0,5.75,clear sky
24,Barrow,US,71.2906,-156.7887,24.82,80,100,8.05,mist
25,Punta Arenas,CL,-53.15,-70.9167,37.51,75,75,12.66,broken clouds
26,Avarua,CK,-21.2078,-159.775,82.45,83,75,11.5,broken clouds
27,Athens,GR,37.9795,23.7162,74.37,45,20,3.0,few clouds
28,Castro,BR,-24.7911,-50.0119,49.66,80,1,3.2,clear sky
29,Tupiza,BO,-21.45,-65.7167,54.23,9,0,7.29,clear sky
30,Bluff,NZ,-46.6,168.3333,51.51,72,100,27.74,overcast clouds
31,Tasiilaq,GL,65.6145,-37.6368,37.56,98,100,11.14,moderate rain
32,Geraldton,AU,-28.7667,114.6,66.61,63,75,14.97,broken clouds
33,Vanimo,PG,-2.6741,141.3028,80.01,83,91,4.74,overcast clouds
34,Sur,OM,22.5667,59.5289,91.81,42,0,15.97,clear sky
35,Khatanga,RU,71.9667,102.5,31.87,92,100,6.35,overcast clouds
36,Hithadhoo,MV,-0.6,73.0833,83.88,70,97,13.91,overcast clouds
37,East London,ZA,-33.0153,27.9116,59.61,85,2,4.81,clear sky
38,Los Llanos De Aridane,ES,28.6585,-17.9182,65.95,86,75,16.11,broken clouds
39,Necochea,AR,-38.5473,-58.7368,53.26,56,100,9.62,overcast clouds
40,Norman Wells,CA,65.282,-126.8329,48.24,43,75,5.75,broken clouds
41,Alenquer,BR,-1.9417,-54.7383,76.57,89,56,2.1,broken clouds
42,Bumbuna,SL,9.05,-11.7333,74.5,97,96,3.29,overcast clouds
43,Ayan,RU,56.45,138.1667,32.99,89,96,8.39,overcast clouds
44,Yellowknife,CA,62.456,-114.3525,37.92,65,100,9.22,light snow
45,Kapaa,US,22.0752,-159.319,80.58,78,20,11.5,few clouds
46,Hun,LY,29.1268,15.9477,75.7,11,0,8.01,clear sky
47,Rutland,US,43.6167,-73.0162,80.58,65,0,6.91,clear sky
48,Thompson,CA,55.7435,-97.8558,64.56,22,100,16.11,overcast clouds
49,Port Hawkesbury,CA,45.6169,-61.3485,66.96,94,100,5.75,overcast clouds
50,Dikson,RU,73.5069,80.5464,22.3,90,69,8.16,broken clouds
51,Marsa Matruh,EG,31.3525,27.2453,64.6,77,0,9.22,clear sky
52,Codrington,AU,-38.2667,141.9667,43.61,89,1,7.16,clear sky
53,Sorrento,IT,40.626,14.3744,67.37,93,20,1.01,few clouds
54,Portland,US,45.5234,-122.6762,75.94,33,100,8.05,overcast clouds
55,Qaanaaq,GL,77.484,-69.3632,27.01,73,100,4.7,overcast clouds
56,Bredasdorp,ZA,-34.5322,20.0403,55.33,90,77,4.54,broken clouds
57,Sioux Lookout,CA,50.1001,-91.917,57.27,26,40,10.36,scattered clouds
58,Albany,US,42.6001,-73.9662,72.01,88,96,3.0,moderate rain
59,Isangel,VU,-19.55,169.2667,82.51,83,20,2.3,few clouds
60,New Norfolk,AU,-42.7826,147.0587,46.92,85,66,1.92,broken clouds
61,Rockport,US,28.0206,-97.0544,86.02,73,0,11.5,clear sky
62,Pampas,PE,-12.4,-74.9,56.05,73,80,6.78,broken clouds
63,Georgetown,MY,5.4112,100.3354,80.53,93,20,2.3,few clouds
64,Hermanus,ZA,-34.4187,19.2345,59.7,82,86,6.42,overcast clouds
65,Saint George,US,37.1041,-113.5841,87.64,10,0,14.97,clear sky
66,Broome,US,42.2506,-75.833,62.98,90,100,16.11,overcast clouds
67,Lasa,IT,46.6166,10.7002,63.48,89,100,2.91,overcast clouds
68,Saskylakh,RU,71.9167,114.0833,32.0,95,100,8.43,overcast clouds
69,Caruaru,BR,-8.2833,-35.9761,67.32,92,32,11.32,scattered clouds
70,Portarlington,IE,53.1622,-7.1911,52.2,85,71,3.0,broken clouds
71,Namibe,AO,-15.1961,12.1522,68.31,76,0,4.34,clear sky
72,Rikitea,PF,-23.1203,-134.9692,75.54,78,11,14.29,light rain
73,Conceicao Da Barra,BR,-18.5933,-39.7322,69.22,73,18,4.79,few clouds
74,Tuktoyaktuk,CA,69.4541,-133.0374,23.0,74,100,11.5,overcast clouds
75,Severnyy,RU,50.677,36.5532,42.84,93,0,6.71,clear sky
76,Valparaiso,CL,-33.0393,-71.6273,61.03,56,0,9.22,clear sky
77,Lebu,CL,-37.6167,-73.65,51.33,81,100,8.75,overcast clouds
78,Vardo,NO,70.3705,31.1107,37.38,93,100,16.11,overcast clouds
79,Ilulissat,GL,69.2167,-51.1,35.62,87,100,0.0,overcast clouds
80,Mataura,NZ,-46.1927,168.8643,44.69,85,92,7.4,overcast clouds
81,Kavieng,PG,-2.5744,150.7967,84.27,65,12,16.93,few clouds
82,Kluang,MY,2.0251,103.3328,75.22,93,94,3.06,overcast clouds
83,Hobart,AU,-42.8794,147.3294,47.26,92,75,9.22,broken clouds
84,Bambous Virieux,MU,-20.3428,57.7575,73.65,78,20,5.75,few clouds
85,Airai,TL,-8.9266,125.4092,58.91,91,50,3.67,scattered clouds
86,San Cristobal,VE,7.7669,-72.225,78.98,50,1,5.08,clear sky
87,Oktyabrskiy,RU,54.4815,53.471,38.14,87,95,1.25,overcast clouds
88,Mahebourg,MU,-20.4081,57.7,73.69,78,20,5.75,few clouds
89,Saint-Philippe,RE,-21.3585,55.7679,67.59,73,40,10.69,scattered clouds
90,Ancud,CL,-41.8697,-73.8203,47.57,72,17,15.57,light rain
91,Matasari,RO,44.85,23.0833,53.67,67,33,2.91,scattered clouds
92,Salalah,OM,17.0151,54.0924,84.29,74,75,5.75,broken clouds
93,Porirua,NZ,-41.1333,174.85,57.54,78,45,11.45,scattered clouds
94,Najran,SA,17.4924,44.1277,77.65,13,0,3.04,clear sky
95,Sidi Ali,DZ,36.0998,0.4206,69.51,67,87,7.63,overcast clouds
96,Masterton,NZ,-40.9597,175.6575,56.88,81,97,3.94,overcast clouds
97,College,US,64.8569,-147.8028,69.28,24,40,11.5,scattered clouds
98,Upernavik,GL,72.7868,-56.1549,31.82,91,100,20.09,overcast clouds
99,Porbandar,IN,21.6422,69.6093,83.52,75,90,20.07,overcast clouds
100,Rio Gallegos,AR,-51.6226,-69.2181,35.65,75,0,4.61,clear sky
101,Lompoc,US,34.6391,-120.4579,78.69,72,0,23.0,clear sky
102,Kyzyl-Suu,KG,42.3414,78.0056,45.97,95,100,3.71,overcast clouds
103,Pucallpa,PE,-8.3791,-74.5539,86.04,62,20,5.75,few clouds
104,Kangalassy,RU,62.3464,129.9628,44.53,62,23,4.65,few clouds
105,San Francisco Del Mar,MX,16.2333,-94.65,84.69,67,0,11.83,clear sky
106,Alofi,NU,-19.0595,-169.9187,82.29,78,9,6.91,clear sky
107,Vila Velha,BR,-20.3297,-40.2925,71.55,78,75,2.3,broken clouds
108,Clyde River,CA,70.4692,-68.5914,19.63,93,100,28.77,light snow
109,Cayenne,GF,4.9333,-52.3333,82.09,1,20,1.99,few clouds
110,Mount Isa,AU,-20.7333,139.5,65.97,68,1,8.05,clear sky
111,San Patricio,US,28.017,-97.5169,85.86,58,100,12.19,overcast clouds
112,Sarab,IR,38.6066,44.9883,65.61,44,98,3.4,overcast clouds
113,Naliya,IN,23.2667,68.8333,83.1,76,92,22.79,overcast clouds
114,Vaini,TO,-21.2,-175.2,80.76,83,20,9.22,few clouds
115,Tuatapere,NZ,-46.1333,167.6833,46.42,80,62,7.85,broken clouds
116,Richards Bay,ZA,-28.783,32.0377,62.13,89,100,17.58,moderate rain
117,Seoul,KR,37.5683,126.9778,64.0,82,75,5.75,mist
118,Guerrero Negro,MX,27.9769,-114.0611,68.04,56,0,17.09,clear sky
119,Sfantu Gheorghe,RO,45.8667,25.7833,57.92,75,48,3.85,scattered clouds
120,Hyeres,FR,43.1167,6.1167,68.67,94,53,3.44,broken clouds
121,Monywa,MM,22.1167,95.1333,86.47,61,53,10.71,broken clouds
122,Severo-Kurilsk,RU,50.6789,156.125,40.82,97,100,16.75,light rain
123,Saint-Georges,GD,12.0564,-61.7485,82.08,74,40,16.11,scattered clouds
124,Piranshahr,IR,36.701,45.1413,58.26,43,59,3.65,broken clouds
125,Marawi,PH,7.9986,124.2928,70.16,91,99,2.35,overcast clouds
126,Nayoro,JP,44.3506,142.4578,57.88,87,98,2.28,overcast clouds
127,Talnakh,RU,69.4865,88.3972,33.21,100,100,5.19,overcast clouds
128,Ales,FR,44.1333,4.0833,68.7,86,99,0.94,overcast clouds
129,Biak,ID,-0.9131,122.8766,75.78,83,93,5.48,overcast clouds
130,Hasaki,JP,35.7333,140.8333,63.28,85,100,12.66,overcast clouds
131,Adrar,MR,20.5022,-10.0711,91.67,12,78,7.05,broken clouds
132,Kirkwall,GB,58.9848,-2.9587,51.85,93,40,2.3,mist
133,Zhuhai,CN,22.2769,113.5678,75.85,94,40,16.11,scattered clouds
134,Bathsheba,BB,13.2167,-59.5167,83.01,74,20,18.41,few clouds
135,Road Town,VG,18.4167,-64.6167,82.49,78,40,6.91,scattered clouds
136,Am Timan,TD,11.0297,20.2827,90.97,28,68,3.15,broken clouds
137,Puerto Ayora,EC,-0.7393,-90.3518,76.96,80,53,9.93,broken clouds
138,Port Alfred,ZA,-33.5906,26.891,59.95,81,45,5.61,scattered clouds
139,Elblag,PL,54.1522,19.4088,45.97,95,45,6.38,scattered clouds
140,Manakara,MG,-22.1333,48.0167,66.38,94,16,3.42,few clouds
141,Husavik,IS,66.0449,-17.3389,37.83,94,100,8.59,overcast clouds
142,Anadyr,RU,64.75,177.4833,52.3,62,0,8.95,clear sky
143,Sibolga,ID,1.7427,98.7792,76.82,86,100,2.84,overcast clouds
144,Ixtapa,MX,20.7,-105.2,79.83,69,0,12.66,clear sky
145,Iqaluit,CA,63.7506,-68.5145,26.33,86,100,21.85,light snow
146,Camalu,MX,30.85,-116.0667,66.34,56,0,11.72,clear sky
147,Utkivka,UA,49.7858,36.0753,47.46,91,89,8.05,overcast clouds
148,Riyadh,SA,24.6877,46.7219,86.14,9,0,6.4,clear sky
149,Margate,GB,51.3813,1.3862,57.69,80,100,3.0,overcast clouds
150,Shelburne,CA,44.0787,-80.2041,55.76,74,91,14.72,overcast clouds
151,Sao Jose Da Coroa Grande,BR,-8.8978,-35.1478,77.23,82,29,13.47,scattered clouds
152,Chuy,UY,-33.6971,-53.4616,54.55,77,71,5.95,broken clouds
153,Nemuro,JP,43.3236,145.575,45.86,96,100,13.47,overcast clouds
154,Bengkulu,ID,-3.8004,102.2655,75.51,89,38,3.13,scattered clouds
155,Torbay,CA,47.6666,-52.7314,57.97,59,100,13.8,overcast clouds
156,Constitucion,CL,-35.3333,-72.4167,52.12,93,100,13.47,overcast clouds
157,Chokurdakh,RU,70.6333,147.9167,32.56,99,100,2.17,light snow
158,Matagami,CA,49.7502,-77.6328,46.51,53,100,8.05,overcast clouds
159,Klaksvik,FO,62.2266,-6.589,47.32,92,36,6.4,scattered clouds
160,Bandarbeyla,SO,9.4942,50.8122,80.78,83,74,23.15,broken clouds
161,Dunedin,NZ,-45.8742,170.5036,51.8,51,60,15.99,broken clouds
162,Bihac,BA,44.8169,15.8708,62.38,97,100,2.93,overcast clouds
163,Fortuna,US,40.5982,-124.1573,61.93,80,20,17.27,few clouds
164,Bethel,US,41.3712,-73.414,90.45,56,0,11.5,clear sky
165,Camacha,PT,33.0833,-16.3333,63.82,72,40,12.66,scattered clouds
166,Malinovoye Ozero,RU,51.6753,79.7825,53.55,42,79,5.26,broken clouds
167,Aykhal,RU,66.0,111.5,50.81,62,16,12.68,few clouds
168,Kabinda,CD,-6.1333,24.4833,72.63,66,90,2.55,overcast clouds
169,Cuamba,MZ,-14.8031,36.5372,65.05,67,21,2.42,few clouds
170,Khani,GE,41.9563,42.9566,54.97,82,86,5.5,light rain
171,Yar-Sale,RU,66.8333,70.8333,33.13,94,100,28.16,overcast clouds
172,El Vigia,VE,8.6219,-71.6506,87.76,61,9,4.05,clear sky
173,Touros,BR,-5.1989,-35.4608,75.85,90,18,12.91,few clouds
174,Puerto Carreno,CO,6.189,-67.4859,82.38,78,20,2.3,few clouds
175,Maniitsoq,GL,65.4167,-52.9,32.83,98,100,31.83,snow
176,Kaitangata,NZ,-46.2817,169.8464,48.38,75,96,15.23,overcast clouds
177,Ewo,CG,-0.8725,14.8206,73.98,87,100,4.81,overcast clouds
178,Saldanha,ZA,-33.0117,17.9442,51.85,89,73,2.01,broken clouds
179,Cabo San Lucas,MX,22.8909,-109.9124,84.61,42,0,10.36,clear sky
180,Aguimes,ES,27.9054,-15.4461,66.83,68,75,23.02,broken clouds
181,Adre,TD,13.4667,22.2,83.61,17,56,11.12,broken clouds
182,Tateyama,JP,34.9833,139.8667,66.65,86,6,8.61,clear sky
183,Turukhansk,RU,65.8167,87.9833,53.29,75,89,6.76,overcast clouds
184,Daru,PG,-9.0763,143.2092,82.47,77,46,13.71,scattered clouds
185,Deshnok,IN,27.7986,73.3447,83.8,46,0,20.92,clear sky
186,Pangnirtung,CA,66.1451,-65.7125,29.79,96,94,5.21,overcast clouds
187,Morro Bay,US,35.3658,-120.8499,92.28,55,17,8.99,few clouds
188,Port Macquarie,AU,-31.4333,152.9167,57.88,87,100,5.77,overcast clouds
189,Parabel,RU,58.6978,81.4825,54.3,79,75,15.01,light rain
190,Maceio,BR,-9.6658,-35.7353,76.44,83,40,3.44,scattered clouds
191,Souillac,MU,-20.5167,57.5167,73.78,78,20,5.75,few clouds
192,Polovinnoye,RU,54.7914,65.9864,41.04,82,42,10.33,scattered clouds
193,Lianran,CN,24.9227,102.485,55.94,93,100,2.21,overcast clouds
194,Faya,SA,18.3851,42.4509,69.91,28,0,0.74,clear sky
195,Te Anau,NZ,-45.4167,167.7167,41.47,86,12,0.58,few clouds
196,Andenes,NO,69.3143,16.1194,44.58,93,75,0.0,broken clouds
197,Maunabo,PR,18.0072,-65.8993,82.71,80,96,10.38,overcast clouds
198,Gryazovets,RU,58.88,40.2525,29.39,84,84,7.49,broken clouds
199,Mattru,SL,7.6244,-11.8332,74.35,97,100,3.44,light rain
200,Omsukchan,RU,62.5333,155.8,34.14,97,100,8.59,overcast clouds
201,Hami,CN,42.8,93.45,77.7,20,66,9.8,broken clouds
202,Uttaradit,TH,17.6667,100.5,70.81,98,97,1.72,overcast clouds
203,Acarau,BR,-2.8856,-40.12,76.95,87,23,7.81,few clouds
204,Tigil,RU,57.8,158.6667,55.11,52,33,6.62,scattered clouds
205,Hervey Bay,AU,-25.2986,152.8535,71.35,69,98,21.05,overcast clouds
206,Luderitz,NA,-26.6481,15.1594,59.83,58,17,6.49,few clouds
207,San,ML,13.3034,-4.8956,86.95,43,88,4.72,light rain
208,Tuy Hoa,VN,13.0833,109.3,78.1,81,100,10.25,overcast clouds
209,Ust-Nera,RU,64.5667,143.2,39.67,79,100,5.5,overcast clouds
210,Narsaq,GL,60.9167,-46.05,39.42,97,98,6.8,overcast clouds
211,Lorengau,PG,-2.0226,147.2712,85.53,64,98,13.18,overcast clouds
212,Flinders,AU,-34.5833,150.8552,56.17,92,99,4.0,light rain
213,Manbij,SY,36.5281,37.9549,59.7,74,5,22.59,clear sky
214,Chicama,PE,-7.8447,-79.1469,63.14,75,14,6.71,few clouds
215,Carauari,BR,-4.8828,-66.8958,73.36,96,69,0.89,broken clouds
216,Aransas Pass,US,27.9095,-97.15,86.0,72,0,13.8,clear sky
217,Westport,US,41.1415,-73.3579,91.62,64,0,14.97,clear sky
218,Vysokogornyy,RU,50.1167,139.15,46.85,74,92,2.82,overcast clouds
219,Coquimbo,CL,-29.9533,-71.3436,58.73,82,0,13.8,clear sky
220,Nova Cruz,BR,-6.4781,-35.4339,72.86,92,4,9.69,clear sky
221,Yumen,CN,40.2833,97.2,61.48,39,18,15.5,few clouds
222,Pevek,RU,69.7008,170.3133,35.47,90,44,9.46,scattered clouds
223,Kodiak,US,57.79,-152.4072,47.71,76,100,17.27,overcast clouds
224,Lakes Entrance,AU,-37.8811,147.981,49.42,78,3,3.56,clear sky
225,Leshukonskoye,RU,64.8989,45.7622,29.05,76,100,13.02,overcast clouds
226,Victoria,HK,22.2855,114.1577,75.96,93,96,18.01,overcast clouds
227,Puerto Escondido,MX,15.85,-97.0667,86.83,66,0,8.05,clear sky
228,Healdsburg,US,38.6105,-122.8692,91.09,22,0,11.5,clear sky
229,Xuddur,SO,4.1213,43.8894,75.58,71,99,17.94,overcast clouds
230,Stokmarknes,NO,68.5646,14.9108,46.38,93,100,4.61,overcast clouds
231,Muisne,EC,0.6,-80.0333,78.21,88,99,9.91,overcast clouds
232,Ballina,AU,-28.8667,153.5667,59.77,82,54,11.77,moderate rain
233,Vizianagaram,IN,18.1167,83.4167,81.86,71,42,4.07,scattered clouds
234,Biaora,IN,23.8667,76.9167,82.98,63,17,15.32,few clouds
235,Poya,NC,-21.35,165.15,81.23,70,2,9.69,clear sky
236,Shangrao,CN,28.4532,117.9686,64.83,99,100,2.15,light rain
237,Kruisfontein,ZA,-34.0033,24.7314,54.05,80,98,2.35,overcast clouds
238,Grand Gaube,MU,-20.0064,57.6608,73.8,77,4,5.01,clear sky
239,Seguela,CI,7.9611,-6.6731,70.07,97,99,3.2,overcast clouds
240,Evensk,RU,61.95,159.2333,40.23,83,100,3.22,overcast clouds
241,Phatthalung,TH,7.5,100.0833,78.58,87,100,4.65,moderate rain
242,Netarhat,IN,23.4833,84.2667,68.29,53,5,5.64,clear sky
243,Tual,ID,-5.6667,132.75,83.1,75,27,17.92,scattered clouds
244,Prieska,ZA,-29.6641,22.7474,55.38,57,11,3.69,few clouds
245,Springfield,US,37.2153,-93.2982,60.66,58,100,13.8,overcast clouds
246,Gat,IL,31.61,34.7642,66.4,100,0,10.13,clear sky
247,Tommot,RU,58.9564,126.2925,48.09,78,71,2.68,broken clouds
248,Tubuala,PA,9.5167,-79.0333,82.24,80,38,7.29,scattered clouds
249,Mar Del Plata,AR,-38.0023,-57.5575,58.95,61,0,4.61,clear sky
250,Feldkirchen An Der Donau,AT,48.3452,14.0513,60.78,65,100,5.75,overcast clouds
251,Leningradskiy,RU,69.3833,178.4167,36.27,95,100,4.9,overcast clouds
252,Port Hardy,CA,50.6996,-127.4199,55.58,76,100,8.05,overcast clouds
253,Nome,US,64.5011,-165.4064,69.87,19,0,12.66,clear sky
254,Barabash,RU,43.2,131.4833,64.67,55,34,2.75,scattered clouds
255,Sucre,BO,-19.0333,-65.2627,54.99,51,1,4.03,clear sky
256,Hurghada,EG,27.2574,33.8129,77.04,23,0,18.41,clear sky
257,Saint-Joseph,RE,-21.3667,55.6167,66.58,73,26,11.23,scattered clouds
258,Sinnamary,GF,5.3833,-52.95,76.64,89,97,5.55,overcast clouds
259,Namtsy,RU,62.7161,129.6658,48.87,78,96,1.03,light rain
260,Mayo,US,38.8876,-76.5119,83.28,71,75,13.8,broken clouds
261,West Bay,KY,19.3667,-81.4167,85.06,78,20,10.36,haze
262,Mahibadhoo,MV,3.7833,72.9667,83.03,76,75,13.33,broken clouds
263,Longyearbyen,SJ,78.2186,15.6401,27.41,95,70,2.77,broken clouds
264,Kieta,PG,-6.2167,155.6333,84.49,64,41,2.26,scattered clouds
265,Shillong,IN,25.5689,91.8831,59.47,93,96,2.42,overcast clouds
266,Lagoa,PT,39.05,-27.9833,61.68,93,100,10.96,light rain
267,Pangody,RU,65.85,74.4859,45.03,86,62,21.32,broken clouds
268,Krasnyy Luch,UA,48.1395,38.9371,47.89,91,32,9.64,scattered clouds
269,Ercis,TR,39.0287,43.3586,52.43,66,45,4.54,scattered clouds
270,Arraial Do Cabo,BR,-22.9661,-42.0278,71.46,68,0,10.36,clear sky
271,Sept-Iles,CA,50.2001,-66.3821,53.06,90,100,10.36,heavy intensity rain
272,Bambari,CF,5.768,20.6757,75.72,73,82,3.47,broken clouds
273,Jinchang,CN,38.4953,102.1739,63.66,44,20,2.71,few clouds
274,Araouane,ML,18.9048,-3.5265,87.91,12,0,5.26,clear sky
275,Ostersund,SE,63.1792,14.6357,48.65,57,40,6.91,scattered clouds
276,Ahipara,NZ,-35.1667,173.1667,63.14,62,100,10.78,overcast clouds
277,Valley,US,45.1277,-116.1262,48.81,41,66,8.95,broken clouds
278,Nyurba,RU,63.2842,118.3319,55.99,56,77,3.44,broken clouds
279,Ocos,GT,14.5094,-92.1933,87.98,72,81,8.88,broken clouds
280,Awbari,LY,26.5921,12.7805,79.16,12,77,12.37,broken clouds
281,Padang,ID,-0.9492,100.3543,76.35,84,86,3.83,overcast clouds
282,Poyarkovo,RU,49.6,128.6833,60.17,61,100,10.83,overcast clouds
283,Katsuura,JP,35.1333,140.3,67.95,83,31,2.68,scattered clouds
284,Siderno,IT,38.2779,16.302,71.33,59,10,9.33,clear sky
285,Coihaique,CL,-45.5752,-72.0662,37.35,81,75,9.22,broken clouds
286,Kropotkin,RU,45.4375,40.5756,54.82,97,98,9.15,overcast clouds
287,Pedernales,DO,18.0384,-71.744,81.28,70,82,4.54,broken clouds
288,Belaguntha,IN,19.8833,84.65,83.23,70,63,2.59,broken clouds
289,Nokaneng,BW,-19.6667,22.2667,49.15,49,0,6.42,clear sky
290,Toamasina,MG,-18.1667,49.3833,69.8,94,40,4.61,scattered clouds
291,Pemba,MZ,-12.974,40.5178,79.5,83,20,2.3,few clouds
292,Durban,ZA,-29.8579,31.0292,65.32,82,100,5.99,overcast clouds
293,Ponta Do Sol,PT,32.6667,-17.1,68.63,69,11,3.47,few clouds
294,Angoche,MZ,-16.2325,39.9086,74.52,85,0,3.89,clear sky
295,Zheleznodorozhnyy,RU,55.7503,38.0042,39.42,77,35,4.74,scattered clouds
296,Snyder,US,32.7179,-100.9176,75.31,27,40,8.05,scattered clouds
297,Beringovskiy,RU,63.05,179.3167,42.13,73,98,10.74,overcast clouds
298,Cidreira,BR,-30.1811,-50.2056,59.34,76,99,5.21,overcast clouds
299,Conde,BR,-7.2597,-34.9075,76.46,94,75,8.05,broken clouds
300,Sao Filipe,CV,14.8961,-24.4956,71.89,78,6,6.13,clear sky
301,Kabalo,CD,-6.05,26.9167,72.12,71,92,1.83,overcast clouds
302,Turangi,NZ,-39.0,175.9333,53.55,57,13,0.96,few clouds
303,South Bend,US,41.6834,-86.25,59.4,45,0,16.11,clear sky
304,Sola,VU,-13.8833,167.55,81.48,73,24,2.75,few clouds
305,Mosquera,CO,4.7059,-74.2302,66.29,68,40,8.05,scattered clouds
306,Provideniya,RU,64.3833,-173.3,51.91,58,0,18.01,clear sky
307,Loa Janan,ID,-0.583,117.095,74.43,98,95,1.34,overcast clouds
308,Gladstone,AU,-23.85,151.25,67.93,73,100,8.05,moderate rain
309,Veshenskaya,RU,49.6303,41.7334,49.82,91,83,10.6,broken clouds
310,Fallon,US,39.4735,-118.7774,76.91,12,40,4.61,scattered clouds
311,Canazas,PA,8.3167,-81.2167,78.51,89,100,2.62,overcast clouds
312,Shenjiamen,CN,29.9576,122.298,65.39,89,100,5.88,moderate rain
313,Kapit,MY,2.0167,112.9333,73.81,90,81,1.07,broken clouds
314,Cankuzo,BI,-3.1333,30.5833,60.17,89,95,3.53,overcast clouds
315,Fukue,JP,32.6881,128.8419,69.21,74,100,6.82,overcast clouds
316,Darhan,MN,49.4867,105.9228,62.13,39,54,1.48,broken clouds
317,Port-Cartier,CA,50.0334,-66.8654,52.75,89,98,8.86,heavy intensity rain
318,Pochutla,MX,15.7432,-96.4661,88.83,52,0,8.99,clear sky
319,Kidal,ML,18.4411,1.4078,86.14,30,30,12.97,scattered clouds
320,Nabire,ID,-3.3667,135.4833,79.25,82,90,2.39,overcast clouds
321,Tlacolula,MX,16.9542,-96.4792,85.96,18,26,15.5,scattered clouds
322,Sao Luis De Montes Belos,BR,-16.525,-50.3722,61.7,37,0,2.1,clear sky
323,Kandrian,PG,-6.2167,149.55,83.03,74,23,3.42,light rain
324,Paraiso,CR,9.8383,-83.8656,72.46,97,100,2.08,overcast clouds
325,Valinhos,BR,-22.9706,-46.9958,64.17,48,0,5.75,clear sky
326,Talara,PE,-4.5772,-81.2719,66.09,89,8,19.64,clear sky
327,Atherton,GB,53.5237,-2.4935,58.75,81,89,1.99,overcast clouds
328,Luorong,CN,24.4058,109.6086,66.45,97,100,4.27,moderate rain
329,Lahijan,IR,37.2061,50.0029,62.38,59,47,2.75,scattered clouds
330,Kalabo,ZM,-14.97,22.6814,52.23,31,15,6.64,few clouds
331,Kopervik,NO,59.2835,5.3067,56.32,71,75,17.27,broken clouds
332,Bria,CF,6.5423,21.9863,71.87,80,48,2.62,scattered clouds
333,Villiers,ZA,-27.0303,28.6006,46.06,88,78,4.43,broken clouds
334,Sao Paulo De Olivenca,BR,-3.3783,-68.8725,73.67,97,59,2.48,broken clouds
335,Nanortalik,GL,60.1432,-45.2371,35.73,92,99,8.34,overcast clouds
336,Seymchan,RU,62.8833,152.4333,47.61,56,100,10.33,overcast clouds
337,Jacareacanga,BR,-6.2222,-57.7528,77.49,67,11,1.34,few clouds
338,Lahat,ID,-3.8,103.5333,71.76,96,76,1.99,broken clouds
339,Doha,QA,25.2867,51.5333,91.38,19,0,13.8,clear sky
340,Balkanabat,TM,39.5108,54.3671,71.01,32,15,13.89,few clouds
341,Metro,ID,-5.1131,105.3067,74.17,94,78,3.78,broken clouds
342,Thanh Hoa,VN,19.8,105.7667,76.89,95,94,1.5,overcast clouds
343,Iracoubo,GF,5.4802,-53.2011,76.8,89,100,5.66,overcast clouds
344,Florianopolis,BR,-27.6146,-48.5012,63.63,80,0,6.91,clear sky
345,Lazaro Cardenas,MX,17.9583,-102.2,82.31,66,10,11.95,clear sky
346,Saint John,CA,45.2727,-66.0677,63.63,91,40,13.8,scattered clouds
347,Hirara,JP,24.8,125.2833,76.86,88,75,9.22,broken clouds
348,Bunbury,AU,-33.3333,115.6333,60.82,70,84,22.57,broken clouds
349,La Ronge,CA,55.1001,-105.2842,66.45,13,75,12.66,broken clouds
350,Yulara,AU,-25.2406,130.9889,57.47,47,80,9.08,broken clouds
351,Umm Kaddadah,SD,13.6017,26.6876,81.77,16,99,13.4,overcast clouds
352,Kushiro,JP,42.975,144.3747,54.55,100,75,4.61,light intensity drizzle
353,Kungurtug,RU,50.5994,97.5228,56.19,35,100,1.5,overcast clouds
354,Bethanien,NA,-26.502,17.1583,54.39,52,15,6.06,few clouds
355,Tautira,PF,-17.7333,-149.15,79.7,74,21,12.77,few clouds
356,Beloha,MG,-25.1667,45.05,63.84,94,9,5.3,clear sky
357,Tulle,FR,45.3333,1.8333,60.01,91,86,5.08,overcast clouds
358,San Andres,CO,12.5847,-81.7006,84.22,79,75,11.5,broken clouds
359,Sisimiut,GL,66.9395,-53.6735,32.58,95,100,1.83,light snow
360,Sao Joao Da Barra,BR,-21.6403,-41.0511,70.32,71,12,9.84,few clouds
361,Kaili,ID,-3.4626,120.2147,66.47,97,100,2.3,overcast clouds
362,Cherskiy,RU,68.75,161.3,55.67,40,93,18.01,overcast clouds
363,Denizli,TR,37.8402,29.0698,65.44,66,35,3.24,scattered clouds
364,Kuusamo,FI,65.9667,29.1833,37.44,93,100,5.75,overcast clouds
365,Himare,AL,40.1017,19.7447,70.09,73,7,1.43,clear sky
366,Coolum Beach,AU,-26.5333,153.1,64.35,97,95,13.04,overcast clouds
367,Esperance,AU,-33.8667,121.9,61.2,82,14,12.19,few clouds
368,Salamanca,ES,40.8333,-6.0,58.78,94,56,6.29,broken clouds
369,Eydhafushi,MV,5.1033,73.0708,82.83,78,56,14.32,broken clouds
370,Vila Franca Do Campo,PT,37.7167,-25.4333,70.2,95,92,2.53,light rain
371,Kenai,US,60.5544,-151.2583,70.03,25,0,13.8,clear sky
372,Akyab,MM,20.15,92.9,81.59,80,95,3.67,overcast clouds
373,Aldan,RU,58.6031,125.3894,43.97,69,73,3.27,broken clouds
374,Galdar,ES,28.147,-15.6502,68.5,78,55,15.28,broken clouds
375,Porto Novo,BJ,6.4965,2.6036,80.42,86,68,3.85,broken clouds
376,Sinjar,IQ,36.3209,41.8754,74.98,20,74,8.25,broken clouds
377,Huarmey,PE,-10.0681,-78.1522,66.56,82,8,7.96,clear sky
378,Quatre Cocos,MU,-20.2078,57.7625,73.51,65,20,12.48,few clouds
379,Hammerfest,NO,70.6634,23.6821,46.85,66,75,3.44,broken clouds
380,Nhulunbuy,AU,-12.2333,136.7667,79.41,83,40,5.75,scattered clouds
381,Glenwood Springs,US,39.5505,-107.3248,68.92,36,100,4.61,overcast clouds
382,Macheng,CN,31.1783,115.0319,68.45,82,13,2.48,few clouds
383,Sibu,MY,2.3,111.8167,75.51,94,40,5.99,scattered clouds
384,Flin Flon,CA,54.7682,-101.865,62.44,20,75,17.27,broken clouds
385,Kadhan,PK,24.481,68.9859,82.89,78,21,22.32,few clouds
386,Dallas,US,32.7668,-96.7836,72.39,55,75,10.36,broken clouds
387,Sao Desiderio,BR,-12.3633,-44.9733,76.73,45,34,3.6,scattered clouds
388,Numata,JP,36.6333,139.05,60.6,82,85,3.36,light rain
389,San Pedro,PH,14.35,121.0167,80.26,89,75,1.14,broken clouds
390,Dingle,PH,10.9995,122.6711,80.17,81,100,3.94,overcast clouds
391,Kudahuvadhoo,MV,2.6708,72.8944,83.14,75,51,11.92,broken clouds
392,Senanga,ZM,-16.1167,23.2667,49.77,40,0,5.73,clear sky
393,Bafra,TR,41.5678,35.9069,57.42,65,12,6.71,few clouds
394,Port Lavaca,US,28.615,-96.6261,89.15,64,0,8.05,clear sky
395,Inuvik,CA,68.3499,-133.7218,32.76,53,20,9.22,few clouds
396,Luena,AO,-11.7833,19.9167,55.0,62,57,4.23,broken clouds
397,Christchurch,NZ,-43.5333,172.6333,54.41,78,3,8.05,clear sky
398,Haljala,EE,59.4336,26.2614,39.47,54,57,2.46,broken clouds
399,Coachella,US,33.6803,-116.1739,97.45,20,0,9.22,clear sky
400,Adamovka,RU,51.5223,59.9396,49.87,95,100,15.61,light rain
401,Clarence Town,AU,-32.5833,151.7833,58.95,93,94,2.21,overcast clouds
402,Jimo,CN,36.3897,120.4622,67.78,77,0,6.71,clear sky
403,Bushehr,IR,28.9684,50.8385,86.09,39,0,13.8,clear sky
404,Fairbanks,US,64.8378,-147.7164,69.3,24,0,11.5,clear sky
405,Yambio,SS,4.5721,28.3955,68.27,95,71,2.06,moderate rain
406,Mbour,SN,14.422,-16.9638,70.65,79,29,13.31,scattered clouds
407,Kisangani,CD,0.5167,25.2,72.72,90,100,2.04,overcast clouds
408,Trinidad,BO,-14.8333,-64.9,78.78,69,52,3.44,broken clouds
409,Tiznit,MA,29.5833,-9.5,73.94,53,11,1.25,few clouds
410,Labuhan,ID,-6.8844,112.2051,78.37,86,92,10.11,overcast clouds
411,Srandakan,ID,-7.9386,110.2506,75.72,86,61,4.47,broken clouds
412,Coffeyville,US,37.0373,-95.6164,68.02,42,0,10.36,clear sky
413,Hualmay,PE,-11.0964,-77.6139,65.01,86,27,6.82,scattered clouds
414,Carnarvon,AU,-24.8667,113.6333,69.6,58,32,14.72,scattered clouds
415,Grindavik,IS,63.8424,-22.4338,51.75,81,0,13.8,clear sky
416,Nanae,JP,41.8833,140.6833,55.63,94,75,3.44,fog
417,Chemal,RU,51.4111,86.005,57.09,83,84,5.73,broken clouds
418,Vostok,RU,46.4856,135.8833,54.5,72,66,1.28,broken clouds
419,Dawson Creek,CA,55.7666,-120.2362,67.64,21,0,6.91,clear sky
420,Likhoslavl,RU,57.1275,35.464,32.68,77,9,5.37,clear sky
421,Cap-Aux-Meules,CA,47.3821,-61.8597,59.05,88,100,16.11,overcast clouds
422,Beboto,TD,8.2668,16.939,79.41,52,61,4.61,broken clouds
423,Sabha,LY,27.0377,14.4283,75.83,11,35,10.98,scattered clouds
424,Lavrentiya,RU,65.5833,-171.0,39.97,81,100,7.09,overcast clouds
425,Sandviken,SE,60.6167,16.7667,48.56,49,43,5.32,scattered clouds
426,Santiago De Chuco,PE,-8.15,-78.1833,53.17,82,80,3.53,light rain
427,Shintomi,JP,32.0785,131.4723,69.12,61,100,1.81,overcast clouds
428,Papara,BR,-3.9839,-38.7273,79.2,92,10,2.64,clear sky
429,Berlevag,NO,70.8578,29.0864,39.15,81,100,2.3,overcast clouds
430,Celestun,MX,20.8667,-90.4,74.86,90,81,9.62,broken clouds
431,Russkaya Polyana,UA,49.417,31.9201,47.86,94,89,8.52,overcast clouds
432,Trussville,US,33.6198,-86.6089,87.51,42,75,6.91,broken clouds
433,Dzaoudzi,YT,-12.7887,45.2699,80.49,78,0,12.66,clear sky
434,Praia Da Vitoria,PT,38.7333,-27.0667,64.65,94,100,6.91,fog
435,Bowmore,US,34.9421,-79.3031,85.84,48,0,9.22,clear sky
436,Glendive,US,47.1053,-104.7125,59.7,35,0,8.05,clear sky
437,Deputatskiy,RU,69.3,139.9,31.26,93,63,1.7,broken clouds
438,Atar,MR,20.5169,-13.0499,90.36,18,53,4.47,broken clouds
439,Ocala,US,29.1872,-82.1401,91.38,55,20,8.05,few clouds
440,Chumikan,RU,54.7183,135.315,32.25,94,100,10.2,overcast clouds
441,Acapulco,MX,16.8634,-99.8901,85.82,66,75,3.44,broken clouds
442,Arrecife,ES,28.963,-13.5477,67.98,77,40,19.57,scattered clouds
443,Mehamn,NO,71.0357,27.8492,39.11,85,95,3.87,overcast clouds
444,Mizdah,LY,31.4451,12.9801,66.83,25,0,5.53,clear sky
445,Gizo,SB,-8.103,156.8419,82.96,73,22,5.39,light rain
446,Luganville,VU,-15.5333,167.1667,82.83,76,24,1.83,few clouds
447,Orlik,RU,52.5178,99.825,52.84,66,94,5.41,overcast clouds
448,Umm Lajj,SA,25.0213,37.2685,77.59,56,3,12.55,clear sky
449,Luau,AO,-10.7073,22.2247,62.56,49,100,6.62,overcast clouds
450,Shafranovo,RU,53.9667,54.7667,41.41,94,100,5.12,overcast clouds
451,Grand Baie,MU,-20.0182,57.5802,73.87,77,4,4.0,clear sky
452,Batticaloa,LK,7.7102,81.6924,79.9,70,18,3.89,few clouds
453,Komsomolskiy,UZ,40.4272,71.7189,52.52,87,100,4.61,overcast clouds
454,Goure,NE,13.9835,10.2704,82.44,15,51,5.84,broken clouds
455,Alamosa,US,37.4695,-105.87,66.18,20,40,21.85,scattered clouds
456,San Fernando,PH,15.0286,120.6898,78.53,80,99,1.57,overcast clouds
457,Dakar,SN,14.6937,-17.4441,70.68,80,21,14.12,few clouds
458,Naze,JP,28.3667,129.4833,67.12,70,100,4.92,overcast clouds
459,Stornoway,GB,58.2093,-6.3865,48.92,97,75,10.36,light rain
460,Lata,PT,40.1629,-8.3327,64.08,89,86,3.53,overcast clouds
461,Aquidaba,BR,-10.2814,-37.0186,69.1,84,1,5.14,clear sky
462,Linxia,CN,35.6003,103.2064,56.28,64,82,3.49,broken clouds
463,Pisco,PE,-13.7,-76.2167,66.02,82,78,9.22,mist
464,Kawalu,ID,-7.3817,108.2082,71.29,93,78,3.42,broken clouds
465,Khandyga,RU,62.6667,135.6,49.1,52,26,2.39,scattered clouds
466,Tezu,IN,27.9167,96.1667,70.39,81,9,4.05,clear sky
467,Lixourion,GR,38.2019,20.4314,66.58,77,6,2.86,clear sky
468,Madingou,CG,-4.1536,13.55,71.19,93,96,3.18,overcast clouds
469,Miles City,US,46.4083,-105.8406,58.17,38,75,8.05,broken clouds
470,Woodward,US,36.4337,-99.3904,70.83,26,0,13.8,clear sky
471,Mokhsogollokh,RU,61.4681,128.9203,48.29,75,100,1.83,light rain
472,Gorontalo,ID,0.5412,123.0595,77.58,83,99,1.32,overcast clouds
473,Belmonte,BR,-15.8631,-38.8828,72.03,82,19,9.37,few clouds
474,Alta Floresta,BR,-9.8756,-56.0861,71.02,65,3,2.77,clear sky
475,Etla,MX,17.0608,-96.7944,87.28,16,42,17.98,scattered clouds
476,Kortkeros,RU,61.8106,51.5806,30.2,99,100,5.88,light snow
477,Yarmouth,US,41.7057,-70.2286,74.64,83,0,12.66,clear sky
478,Lodja,CD,-3.4833,23.4333,70.14,95,81,2.59,light rain
479,Qasigiannguit,GL,68.8193,-51.1922,35.85,97,100,1.14,overcast clouds
480,Key West,US,24.5557,-81.7826,89.6,71,20,21.85,few clouds
481,Adelaide,AU,-34.9333,138.6,61.43,72,0,6.91,clear sky
482,Gua Musang,MY,4.8823,101.9644,73.51,93,93,1.19,overcast clouds
483,Petropavlovsk-Kamchatskiy,RU,53.0452,158.6483,41.59,100,75,4.47,broken clouds
484,Kismayo,SO,-0.3582,42.5454,79.66,85,100,15.9,overcast clouds
485,Andilamena,MG,-17.0167,48.5833,58.37,97,66,4.12,broken clouds
486,Zatoka,UA,46.0725,30.4654,57.02,71,100,13.58,overcast clouds
487,Karpogory,RU,64.0019,44.4451,30.65,75,100,13.0,overcast clouds
488,Paris,FR,48.8534,2.3488,65.17,79,87,9.22,light rain
489,Faanui,PF,-16.4833,-151.75,80.96,69,12,14.79,few clouds
490,Bontang,ID,0.1333,117.5,76.15,88,100,3.49,light rain
491,Hamburg,DE,53.55,10.0,55.26,84,0,6.91,clear sky
492,Bubaque,GW,11.2833,-15.8333,78.17,75,39,15.61,scattered clouds
493,Manicore,BR,-5.8092,-61.3003,78.93,70,99,1.19,overcast clouds
494,Lichuan,CN,30.3,108.85,54.01,93,13,0.4,few clouds
495,Carutapera,BR,-1.195,-46.02,75.13,91,55,4.65,broken clouds
496,Salinas,US,36.6777,-121.6555,84.56,54,0,11.5,clear sky
497,Marsabit,KE,2.3284,37.9899,67.17,72,88,17.4,overcast clouds
498,Bolong,PH,7.0983,122.2392,77.0,77,100,1.59,overcast clouds
499,Doume,CM,4.2333,13.45,69.3,99,90,2.53,light rain
500,Valsad,IN,20.6333,72.9333,83.8,72,94,14.79,overcast clouds
501,Champerico,GT,14.3,-91.9167,86.54,73,89,8.43,overcast clouds
502,Diego De Almagro,CL,-26.3667,-70.05,61.12,39,0,2.26,clear sky
503,Boa Vista,BR,2.8197,-60.6733,75.18,88,75,1.14,broken clouds
504,Hamilton,US,39.1834,-84.5333,68.95,64,75,12.66,broken clouds
505,Vestmanna,FO,62.1564,-7.1664,45.52,93,100,4.61,overcast clouds
506,Oranjemund,NA,-28.55,16.4333,56.7,69,13,4.29,few clouds
507,Forestville,US,38.8451,-76.875,81.3,79,75,12.66,moderate rain
508,Mount Gambier,AU,-37.8333,140.7667,39.11,93,0,5.75,clear sky
509,Egvekinot,RU,66.3167,-179.1667,48.09,47,97,0.72,overcast clouds
510,Alto Longa,BR,-5.2511,-42.2103,77.18,74,55,4.21,broken clouds
511,Porterville,US,36.0652,-119.0168,91.53,13,0,7.74,clear sky
512,Hambantota,LK,6.1241,81.1185,79.05,84,92,15.99,overcast clouds
513,Huron,US,41.1501,-82.5499,67.44,69,100,4.92,overcast clouds
514,Kunming,CN,25.0389,102.7183,55.33,100,100,8.95,overcast clouds
515,North Bend,US,43.4065,-124.2243,68.23,94,0,11.5,clear sky
516,Vaitape,PF,-16.5167,-151.75,80.98,69,13,14.81,few clouds
517,Saint-Denis,FR,48.9167,2.3333,65.17,75,75,9.22,light rain
518,Tartagal,AR,-22.5164,-63.8013,59.7,64,0,1.92,clear sky
519,Rio Claro,BR,-22.4114,-47.5614,57.13,63,0,2.53,clear sky
520,Saint-Augustin,CA,51.226,-58.6502,47.52,92,70,9.26,broken clouds
521,Kavaratti,IN,10.5669,72.642,82.67,81,97,18.32,overcast clouds
522,Meteti,PA,8.4983,-77.9786,79.23,89,37,2.19,scattered clouds
523,Waw,SS,7.7029,27.9953,75.34,76,99,4.61,overcast clouds
524,Muros,ES,42.7762,-9.0603,60.67,90,36,4.09,scattered clouds
525,Paamiut,GL,61.994,-49.6678,33.94,89,100,21.45,light snow
526,Kahului,US,20.8947,-156.47,87.82,42,20,23.02,few clouds
527,Elyria,US,41.3684,-82.1077,65.55,72,0,5.75,clear sky
528,Hashtrud,IR,37.4779,47.0508,60.84,35,100,2.06,overcast clouds
529,Vestmannaeyjar,IS,63.4427,-20.2734,49.82,75,2,3.22,clear sky
530,Dabola,GN,10.75,-11.1167,76.37,76,76,1.97,light rain
531,Katangli,RU,51.7102,143.2326,35.64,84,100,7.56,overcast clouds
532,Bada,RU,51.392,109.8717,55.26,75,100,4.25,light rain
533,Yulin,CN,22.6333,110.15,75.13,95,100,3.24,overcast clouds
534,Bahia Blanca,AR,-38.7196,-62.2724,59.2,40,100,6.2,overcast clouds
535,Kaohsiung,TW,22.6163,120.3133,80.04,87,75,4.61,mist
536,Saint-Paul,RE,-21.0096,55.2707,69.89,78,44,2.17,scattered clouds
537,Havelock,US,34.8791,-76.9013,80.56,85,95,5.99,overcast clouds
538,Turayf,SA,31.6725,38.6637,62.85,39,0,11.5,clear sky
539,Launceston,AU,-41.45,147.1667,33.44,100,59,5.75,broken clouds
540,Zhezkazgan,KZ,47.8043,67.7144,48.97,29,3,9.22,clear sky
541,Sangar,RU,63.9242,127.4739,46.13,77,32,2.19,scattered clouds
542,Ajaccio,FR,42.0,8.9167,60.85,82,0,8.05,clear sky
543,Cabadiangan,PH,9.7531,122.4739,80.8,80,100,4.56,overcast clouds
544,Solnechnyy,RU,50.7214,136.6319,47.05,61,87,2.95,overcast clouds
545,Wasilla,US,61.5814,-149.4394,69.66,26,0,8.01,clear sky
546,Soyo,AO,-6.1349,12.3689,74.53,82,74,6.93,broken clouds
547,Puerto Del Rosario,ES,28.5004,-13.8627,67.75,77,20,18.41,few clouds
548,Tungor,RU,53.3808,142.9564,34.79,83,100,5.75,overcast clouds
549,Laguna,US,38.421,-121.4238,91.15,18,0,10.36,clear sky
550,Luebo,CD,-5.35,21.4167,71.19,95,98,1.25,overcast clouds
551,Udachnyy,RU,66.4167,112.4,57.45,37,73,12.39,broken clouds
552,Madimba,TZ,-10.4,40.3333,72.72,94,20,11.5,few clouds
553,Gilgit,PK,35.9221,74.3087,62.46,64,97,1.5,overcast clouds
554,Bentiu,SS,9.2333,29.8333,83.61,57,93,3.87,overcast clouds
555,Luxor,EG,25.6989,32.6421,75.25,27,0,4.61,clear sky
556,Ituango,CO,7.1712,-75.764,66.06,96,66,1.74,broken clouds
557,Cassilandia,BR,-19.1133,-51.7342,62.98,39,0,3.74,clear sky
558,Lancaster,US,40.2504,-76.2499,78.42,72,59,4.0,broken clouds
559,Sal Rei,CV,16.1833,-22.9167,71.26,78,23,13.29,few clouds
560,Cockburn Town,TC,21.4612,-71.1419,82.36,69,40,17.27,scattered clouds
561,Basco,PH,20.4487,121.9702,81.39,81,93,10.49,light rain
562,Viedma,AR,-40.8135,-62.9967,57.99,41,100,13.73,light rain
563,Malinovka,BY,53.8579,27.4374,44.1,77,99,7.14,overcast clouds
564,Wanning,CN,18.8003,110.3967,79.75,90,100,5.3,overcast clouds
565,Marigot,MF,18.0667,-63.0833,82.49,69,40,11.5,scattered clouds
566,Qaqortoq,GL,60.7167,-46.0333,33.98,94,93,4.34,overcast clouds
567,Aktas,KZ,49.7789,72.9608,37.15,56,0,7.87,clear sky
568,Rawson,AR,-43.3002,-65.1023,49.46,43,100,10.56,overcast clouds
569,Tocopilla,CL,-22.092,-70.1979,66.18,69,18,9.19,few clouds
570,Batagay,RU,67.6333,134.6333,49.37,55,27,3.65,scattered clouds
571,Bogovarovo,RU,58.9785,47.0246,32.47,98,100,6.85,light snow
572,Nouadhibou,MR,20.931,-17.0347,66.18,88,1,16.11,clear sky
573,Comodoro Rivadavia,AR,-45.8667,-67.5,46.26,46,0,14.97,clear sky
574,Ghanzi,BW,-21.5667,21.7833,46.74,54,0,7.52,clear sky
575,Aranos,NA,-24.1333,19.1167,49.8,61,13,8.52,few clouds
576,Port-Gentil,GA,-0.7193,8.7815,78.76,83,75,11.5,broken clouds
577,Russell,US,32.3502,-85.1999,80.01,73,0,4.61,clear sky
578,Kalmunai,LK,7.4167,81.8167,79.59,75,26,4.61,scattered clouds
579,Nata,PA,8.3333,-80.5167,82.27,78,86,1.1,overcast clouds
580,Whitianga,NZ,-36.8333,175.7,60.31,69,37,9.28,scattered clouds
581,Pocone,BR,-16.2567,-56.6228,73.0,43,11,0.85,few clouds
582,Havre-Saint-Pierre,CA,50.2334,-63.5986,52.16,82,100,11.5,overcast clouds
583,Bambanglipuro,ID,-7.95,110.2833,75.63,87,61,4.56,broken clouds
584,Banda Aceh,ID,5.5577,95.3222,80.37,79,100,13.35,light rain
585,Karwar,IN,14.8,74.1333,79.39,85,100,5.35,overcast clouds
586,Wasaga Beach,CA,44.5168,-80.0164,56.68,88,93,1.01,overcast clouds
587,Gustrow,DE,53.7972,12.1734,48.96,87,20,1.14,few clouds
588,Hue,VN,16.4667,107.6,78.91,94,40,3.44,scattered clouds
589,Tokur,RU,53.1333,132.9,33.46,99,100,3.67,snow
590,Rocha,UY,-34.4833,-54.3333,51.08,84,41,5.84,scattered clouds
591,Dauphin,CA,51.1494,-100.0502,62.74,27,75,4.61,broken clouds
592,Minot,US,48.2325,-101.2963,60.91,30,0,10.36,clear sky
593,Trairi,BR,-3.2778,-39.2689,74.64,92,15,6.11,few clouds
594,Golden,US,39.7555,-105.2211,59.32,53,75,9.22,broken clouds
595,Juneau,US,58.3019,-134.4197,66.2,100,75,10.36,broken clouds
596,Hokitika,NZ,-42.7167,170.9667,51.15,68,0,2.93,clear sky
597,Poum,NC,-20.2333,164.0167,79.21,79,1,11.32,clear sky
598,Katherine,AU,-14.4667,132.2667,66.52,68,95,3.44,overcast clouds
599,Awjilah,LY,29.1081,21.2869,70.41,31,0,6.96,clear sky
600,Sorland,NO,67.667,12.6934,46.26,90,90,5.28,overcast clouds
601,Pizarro,CO,4.9533,-77.366,80.08,85,91,7.11,light rain
602,Sabla,NG,12.7525,4.7077,85.3,46,95,9.66,overcast clouds
603,Keelung,TW,25.1283,121.7419,77.05,90,100,3.8,overcast clouds
604,Asau,RO,46.4333,26.4,54.52,73,93,2.64,overcast clouds
605,Buin,CL,-33.7333,-70.75,67.12,48,100,2.64,overcast clouds
606,Port Blair,IN,11.6667,92.75,82.63,81,100,22.5,overcast clouds
607,Saint-Leu,RE,-21.15,55.2833,70.63,73,62,3.44,broken clouds
608,Atasu,KZ,48.6814,71.6433,45.27,47,0,6.96,clear sky
609,Burns Lake,CA,54.2331,-125.7533,65.62,25,40,9.37,scattered clouds
610,Noyabrsk,RU,63.1994,75.4507,55.35,75,61,20.98,broken clouds
611,Hearst,CA,49.6835,-83.6665,46.65,49,100,7.49,overcast clouds
612,Warman,CA,52.3168,-106.5679,62.1,21,75,11.5,broken clouds
613,Kharp,RU,66.8014,65.8081,35.04,81,100,25.26,overcast clouds
614,Dali,CN,25.7,100.1833,60.1,92,63,2.04,broken clouds
615,Hidrolandia,BR,-4.4081,-40.4378,74.37,79,68,1.9,broken clouds
616,Gueret,FR,46.1667,1.8667,63.61,93,76,16.06,broken clouds
617,Ternate,ID,0.8,127.4,80.62,79,100,4.47,overcast clouds
618,Port Lincoln,AU,-34.7333,135.8667,60.75,75,74,9.73,broken clouds
619,Sao Jose De Ribamar,BR,-2.5619,-44.0542,79.18,85,21,5.88,few clouds
620,Bobrovka,RU,54.047,61.7455,40.77,86,40,9.62,scattered clouds
621,Presidencia Roque Saenz Pena,AR,-26.7852,-60.4388,60.06,66,0,6.71,clear sky
622,Takoradi,GH,4.8845,-1.7554,74.59,90,100,3.13,overcast clouds
623,Ketchikan,US,55.3422,-131.6461,54.07,71,20,14.97,few clouds
624,Aklavik,CA,68.2191,-135.0107,36.16,57,98,9.37,overcast clouds
625,Munger,IN,25.3833,86.4667,77.02,79,20,7.07,few clouds
626,Zelenoborsk,RU,61.4669,64.0333,37.04,91,100,12.48,overcast clouds
627,Manacapuru,BR,-3.2997,-60.6206,76.26,89,21,3.94,few clouds
628,Novodmitriyevskaya,RU,44.8347,38.8772,55.89,79,100,4.72,overcast clouds
629,Peace River,CA,56.2501,-117.286,62.91,41,75,9.22,broken clouds
630,Tighina,MD,46.8306,29.4711,52.57,73,91,9.84,overcast clouds
631,Hailey,US,43.5196,-114.3153,53.91,70,75,13.0,broken clouds
632,Kefamenanu,ID,-9.4467,124.4781,72.73,86,33,3.76,scattered clouds
633,Intipuca,SV,13.1969,-88.0544,84.15,83,99,2.55,overcast clouds
634,Loukhi,RU,66.0764,33.0381,29.5,78,42,3.38,scattered clouds
635,Surt,LY,31.2089,16.5887,69.39,36,0,14.09,clear sky
636,Payo,ID,-3.7508,103.6372,71.96,97,76,1.16,broken clouds
637,Meadow Lake,US,34.8014,-106.5436,76.32,24,71,20.98,broken clouds
638,Bonfim,BR,3.0833,-59.95,72.32,95,100,3.56,overcast clouds
639,Mindelo,CV,16.8901,-24.9804,72.95,68,20,19.57,few clouds
640,Ostrow Mazowiecka,PL,52.8024,21.8951,49.62,96,100,9.4,overcast clouds
641,Bollnas,SE,61.3482,16.3946,42.64,65,44,3.31,scattered clouds
642,Huambo,AO,-12.7761,15.7392,56.59,61,80,2.71,broken clouds
643,Meulaboh,ID,4.1363,96.1285,76.6,89,100,2.82,overcast clouds
644,Kuliyapitiya,LK,7.4688,80.0401,80.28,91,56,6.85,broken clouds
645,Pervouralsk,RU,56.9053,59.9436,32.74,95,85,6.24,overcast clouds
646,Ngong,KE,-1.3618,36.6566,64.69,73,75,0.0,broken clouds
647,Port Hedland,AU,-20.3167,118.5667,77.05,100,100,0.0,overcast clouds
648,Udankudi,IN,8.4333,78.0167,80.02,74,29,10.54,scattered clouds
649,Yurimaguas,PE,-5.9,-76.0833,79.77,68,67,1.61,broken clouds
650,Itoman,JP,26.1247,127.6694,75.22,78,100,11.5,light rain
651,Constanta,RO,44.1833,28.65,52.7,84,71,2.73,broken clouds
652,Taft,IR,31.7471,54.2088,66.15,16,0,2.3,dust
653,El Alto,PE,-4.2714,-81.2147,67.19,80,17,19.91,few clouds
654,Nizhniy Tsasuchey,RU,50.5167,115.1333,60.98,47,94,11.74,overcast clouds
655,Bar Harbor,US,44.3876,-68.2039,68.94,84,0,10.36,clear sky
656,Hobyo,SO,5.3505,48.5268,80.08,82,100,27.58,overcast clouds
657,Dabhol,IN,17.6,73.1667,81.68,79,8,6.17,clear sky
658,Warwick,US,41.7001,-71.4162,85.68,68,0,17.27,clear sky
659,Cascais,PT,38.6979,-9.4215,64.47,76,94,25.01,overcast clouds
660,Saint-Marc,HT,19.1082,-72.6938,80.98,74,46,6.06,scattered clouds
661,Nantucket,US,41.2835,-70.0995,67.01,85,20,11.5,few clouds
662,Vila,PT,42.0304,-8.1588,51.69,93,95,3.38,overcast clouds
663,Odesskoye,RU,54.2111,72.9651,48.33,59,47,14.88,scattered clouds
664,Khasan,RU,42.4308,130.6434,58.15,67,8,2.75,clear sky
665,Smidovich,RU,48.6,133.8167,50.94,63,67,10.58,broken clouds
666,Rio Grande,BR,-32.035,-52.0986,55.94,78,0,8.34,clear sky
667,Lufilufi,WS,-13.8745,-171.5986,87.58,74,55,17.94,light rain
668,Pesochnyy,RU,60.123,30.164,38.98,66,27,3.47,scattered clouds
669,Antofagasta,CL,-23.65,-70.4,58.28,84,32,6.2,scattered clouds
670,Puerto Leguizamo,CO,-0.1934,-74.7819,73.65,94,32,1.19,scattered clouds
671,Jaciara,BR,-15.9653,-54.9683,67.93,51,20,2.77,few clouds
672,Semey,KZ,50.4111,80.2275,56.73,53,100,5.48,overcast clouds
673,Wanaka,NZ,-44.7,169.15,47.46,59,4,2.91,clear sky
674,Yerbogachen,RU,61.2767,108.0108,52.12,81,68,3.18,broken clouds
675,San Ignacio,BZ,17.1561,-89.0714,96.94,44,40,11.5,scattered clouds
676,Paragominas,BR,-2.9667,-47.4833,73.78,94,55,3.36,broken clouds
677,Baykit,RU,61.67,96.37,54.34,74,0,1.5,clear sky
678,Imbituba,BR,-28.24,-48.6703,64.85,97,100,5.68,overcast clouds
679,Tomakivka,UA,47.8157,34.7414,52.0,82,51,10.98,broken clouds
680,Hofn,IS,64.2539,-15.2082,45.61,67,58,13.22,broken clouds
681,Jurmala,LV,56.968,23.7704,44.62,93,0,1.14,clear sky
682,Mikkeli,FI,61.6886,27.2723,44.15,87,0,0.0,clear sky
683,Nago,JP,26.5881,127.9761,73.83,81,99,10.98,moderate rain
684,Manta,EC,-0.95,-80.7333,80.38,74,40,11.5,scattered clouds
685,Viseu,PT,40.661,-7.9097,60.85,97,21,3.69,few clouds
686,Kedrovyy,RU,56.1667,91.8167,43.21,60,100,4.72,overcast clouds
687,Ciudad Bolivar,VE,8.1222,-63.5497,77.4,81,100,10.42,overcast clouds
688,Inhambane,MZ,-23.865,35.3833,69.06,93,96,4.34,moderate rain
689,Talcahuano,CL,-36.7167,-73.1167,53.28,94,100,6.91,overcast clouds
690,Manoel Urbano,BR,-8.8389,-69.2597,76.48,77,62,2.15,broken clouds
691,Kutum,SD,14.2,24.6667,75.52,20,43,5.91,scattered clouds
692,Bandar-E Lengeh,IR,26.5579,54.8807,82.29,78,0,9.1,clear sky
693,Rosetta,EG,31.4044,30.4164,67.48,85,0,15.77,clear sky
694,Karratha,AU,-20.7377,116.8463,76.55,77,99,6.76,overcast clouds
